[
    {
        "propertyId": "115",
        "name": "Sheraton Birmingham Hotel",
        "url": "http:\/\/www.starwoodhotels.com\/preferredguest\/property\/overview\/index.html?language=en_US&propertyID=115",
        "category": "SPG3",
        "address": "2101 Richard Arrington Jr. Boulevard North",
        "city": "Birmingham,",
        "state": "Alabama",
        "country": "United States",
        "zip": "35203",
        "phone": "(1)(205) 324-5000",
        "latitude": "33.5247",
        "longitude": "-86.8106"
    },
    {
        "propertyId": "3722",
        "name": "The Westin Birmingham",
        "url": "http:\/\/www.starwoodhotels.com\/preferredguest\/property\/overview\/index.html?language=en_US&propertyID=3722",
        "category": "SPG4",
        "address": "2221 Richard Arrington Jr. Boulevard North",
        "city": "Birmingham,",
        "state": "Alabama",
        "country": "United States",
        "zip": "35203",
        "phone": "(1)(205) 307-3600",
        "latitude": "33.526",
        "longitude": "-86.8083"
    },
    {
        "propertyId": "3272",
        "name": "Aloft Birmingham Soho Square",
        "url": "http:\/\/www.starwoodhotels.com\/preferredguest\/property\/overview\/index.html?language=en_US&propertyID=3272",
        "category": "SPG4",
        "address": "1903 29th Avenue South",
        "city": "Homewood,",
        "state": "Alabama",
        "country": "United States",
        "zip": "35209",
        "phone": "(1)(205) 874-8055",
        "latitude": "33.4798",
        "longitude": "-86.7899"
    },
    {
        "propertyId": "4419",
        "name": "Element Huntsville",
        "url": "http:\/\/www.starwoodhotels.com\/preferredguest\/property\/overview\/index.html?language=en_US&propertyID=4419",
        "category": "SPG3",
        "address": "6810 Governors West Road Northwest",
        "city": "Huntsville,",
        "state": "Alabama",
        "country": "United States",
        "zip": "35806",
        "phone": "(1)(256) 327-9000",
        "latitude": "34.7184",
        "longitude": "-86.6723"
    },
    {
        "propertyId": "879",
        "name": "Four Points by Sheraton Huntsville Airport",
        "url": "http:\/\/www.starwoodhotels.com\/preferredguest\/property\/overview\/index.html?language=en_US&propertyID=879",
        "category": "SPG2",
        "address": "1000 Glenn Hearn Boulevard SW",
        "city": "Huntsville,",
        "state": "Alabama",
        "country": "United States",
        "zip": "35824",
        "phone": "(1)(256) 772-9661",
        "latitude": "34.6512",
        "longitude": "-86.7732"
    },
    {
        "propertyId": "1560",
        "name": "The Westin Huntsville",
        "url": "http:\/\/www.starwoodhotels.com\/preferredguest\/property\/overview\/index.html?language=en_US&propertyID=1560",
        "category": "SPG4",
        "address": "6800 Governors West, NW",
        "city": "Huntsville,",
        "state": "Alabama",
        "country": "United States",
        "zip": "35806",
        "phone": "(1)(256) 428-2000",
        "latitude": "34.7187",
        "longitude": "-86.672"
    }
]